{
	"html_attributions": [
	],
	"next_page_token": "CrQCKgEAADGGL-kAsT4brLOiAObgdt9nxM5OQbNeSzdwQA8ywGdGmEO179GYdbaZ6nycHmM9uyGdr1pg0t4eiTvR285a_ncuI4gxF9O0YdYmJ9JYQ_z6jY4nLfHAKg-NKWauFuCfNVjoEIVw_YIHdKnHmz-v03X3pkHlNQi99pHIMCNsKdBmzBZ5uFtP9QAsqBTHW1sAikxzfWt_IIj4y7nD1nwLR64oDAeeH0ZppK3CNPX0c_-299oZHpiTw4v43jvrGSlDA632E5tnfBHJcrQ2oPA7q-1BmOZQY-sTV2mA5mfMjjSCVf6k-T9_-dhs9haXSUiNGA7ao7EDrqw9-1zx3OmzxmAZHrDcvPAJJDd0oGtWlfzpnihw_a8WtiEq3f9nGkGKVTPzmZipttmmBK47M-D-gAcSEE9WLO-DPQhzfJqirDus13MaFC7vMuWyOlY5QN8dhbFC843K67ZK",
	"results": [
		{
			"business_status": "OPERATIONAL",
			"geometry": {
				"location": {
					"lat": 36.16124810000001,
					"lng": -86.7784714
				},
				"viewport": {
					"northeast": {
						"lat": 36.16251653029151,
						"lng": -86.7772989697085
					},
					"southwest": {
						"lat": 36.15981856970851,
						"lng": -86.77999693029152
					}
				}
			},
			"icon": "https://maps.gstatic.com/mapfiles/place_api/icons/generic_business-71.png",
			"name": "Ryman Auditorium",
			"opening_hours": {
				"open_now": true
			},
			"photos": [
				{
					"height": 498,
					"html_attributions": [
						"<a href=\"https://maps.google.com/maps/contrib/113482343908983147932\">Randolfo Santos</a>"
					],
					"photo_reference": "CkQ0AAAALMmJXnrcdtyhqVrQyhdG66W_0GJ2k4n01o1Bt8IFgdxeZG9McD27FeygxuBaYV5cC1g5-pHpWnzCw3VucjDKhRIQXHIo1x94TTcRM_O2lYpxQBoUSWMaJNPrGLd4YRkcBgPN7zy1B7c",
					"width": 735
				}
			],
			"place_id": "ChIJletJO1lmZIgRq0UiSZV5AGM",
			"plus_code": {
				"compound_code": "566C+FJ Nashville, TN, USA",
				"global_code": "868M566C+FJ"
			},
			"price_level": 2,
			"rating": 4.8,
			"reference": "ChIJletJO1lmZIgRq0UiSZV5AGM",
			"scope": "GOOGLE",
			"types": [
				"tourist_attraction",
				"museum",
				"point_of_interest",
				"store",
				"establishment"
			],
			"user_ratings_total": 8999,
			"vicinity": "116 5th Avenue North, Nashville"
		},
		{
			"business_status": "OPERATIONAL",
			"geometry": {
				"location": {
					"lat": 36.2068571,
					"lng": -86.69210849999999
				},
				"viewport": {
					"northeast": {
						"lat": 36.2080454802915,
						"lng": -86.69133294999999
					},
					"southwest": {
						"lat": 36.2053475197085,
						"lng": -86.69443514999999
					}
				}
			},
			"icon": "https://maps.gstatic.com/mapfiles/place_api/icons/generic_business-71.png",
			"name": "Grand Ole Opry",
			"opening_hours": {
				"open_now": true
			},
			"photos": [
				{
					"height": 3024,
					"html_attributions": [
						"<a href=\"https://maps.google.com/maps/contrib/103912812091460166169\">Paul Dwyer</a>"
					],
					"photo_reference": "CkQ0AAAAQY6JWy2WCpFrkLTxyqcmteeLbjHrdqQfaXnehlWKvJrxczOCP-x4HDIJV4G87UR2Wm1AJPkIjnNboiJ3AecZthIQCJTj06a_Sl30wXd0oGMpVxoUcantqeAOXzCdeC0AGyuiSWMeP3c",
					"width": 4032
				}
			],
			"place_id": "ChIJVSpg989pZIgRdex84bjnfic",
			"plus_code": {
				"compound_code": "6845+P5 Nashville, TN, USA",
				"global_code": "868M6845+P5"
			},
			"rating": 4.8,
			"reference": "ChIJVSpg989pZIgRdex84bjnfic",
			"scope": "GOOGLE",
			"types": [
				"tourist_attraction",
				"point_of_interest",
				"establishment"
			],
			"user_ratings_total": 12440,
			"vicinity": "2804 Opryland Drive, Nashville"
		},
		{
			"business_status": "OPERATIONAL",
			"geometry": {
				"location": {
					"lat": 36.15993529999999,
					"lng": -86.7759626
				},
				"viewport": {
					"northeast": {
						"lat": 36.1612578302915,
						"lng": -86.7744370197085
					},
					"southwest": {
						"lat": 36.1585598697085,
						"lng": -86.7771349802915
					}
				}
			},
			"icon": "https://maps.gstatic.com/mapfiles/place_api/icons/generic_business-71.png",
			"name": "Nashville Symphony | Schermerhorn Symphony Center",
			"opening_hours": {
				"open_now": false
			},
			"photos": [
				{
					"height": 1363,
					"html_attributions": [
						"<a href=\"https://maps.google.com/maps/contrib/102223135367034466086\">Nashville Symphony | Schermerhorn Symphony Center</a>"
					],
					"photo_reference": "CkQ0AAAAaCYf3YzxRA4tQDr0WMWtHgtRbkIbPF7Xwy9jYVXj47dKwsjFYyG_a-buZ0wbWIYmyUD0zsIypAyUC_07ODLjbRIQI5MA5LzPmvyCtdw5EG9a5BoUzgodT12vV21AOroyA-GYA_FZ8v4",
					"width": 2048
				}
			],
			"place_id": "ChIJdUBOc1xmZIgRmphTMC6DQDg",
			"plus_code": {
				"compound_code": "565F+XJ Nashville, TN, USA",
				"global_code": "868M565F+XJ"
			},
			"rating": 4.9,
			"reference": "ChIJdUBOc1xmZIgRmphTMC6DQDg",
			"scope": "GOOGLE",
			"types": [
				"tourist_attraction",
				"point_of_interest",
				"establishment"
			],
			"user_ratings_total": 2415,
			"vicinity": "1 Symphony Place, Nashville"
		},
		{
			"business_status": "OPERATIONAL",
			"geometry": {
				"location": {
					"lat": 36.10491620000001,
					"lng": -86.8646954
				},
				"viewport": {
					"northeast": {
						"lat": 36.10612373029151,
						"lng": -86.8633938197085
					},
					"southwest": {
						"lat": 36.10342576970851,
						"lng": -86.86609178029151
					}
				}
			},
			"icon": "https://maps.gstatic.com/mapfiles/place_api/icons/generic_business-71.png",
			"name": "Belle Meade Plantation",
			"opening_hours": {
				"open_now": true
			},
			"photos": [
				{
					"height": 1536,
					"html_attributions": [
						"<a href=\"https://maps.google.com/maps/contrib/112017174372875476101\">Taylor H</a>"
					],
					"photo_reference": "CkQ0AAAAwVkGDDmeS5VZO1GCqvPPFV1iOmg6nvKRGGgScbwFLRYoZSLg_aqGAo9XDvDxzSoYbzEPDIWxNpmoOcvqPZPiPhIQ5IhhBIKjgvOomo82McgzGRoUeQY9JAtZ-ppXPqj9rgg03Wpbvj0",
					"width": 2048
				}
			],
			"place_id": "ChIJG36-nU5iZIgRn-piPWpaiWQ",
			"plus_code": {
				"compound_code": "443P+X4 Nashville, TN, USA",
				"global_code": "868M443P+X4"
			},
			"rating": 4.6,
			"reference": "ChIJG36-nU5iZIgRn-piPWpaiWQ",
			"scope": "GOOGLE",
			"types": [
				"tourist_attraction",
				"food",
				"point_of_interest",
				"establishment"
			],
			"user_ratings_total": 2188,
			"vicinity": "5025 Harding Pike, Nashville"
		},
		{
			"business_status": "OPERATIONAL",
			"geometry": {
				"location": {
					"lat": 36.14967369999999,
					"lng": -86.81334670000001
				},
				"viewport": {
					"northeast": {
						"lat": 36.1511907802915,
						"lng": -86.81220131970849
					},
					"southwest": {
						"lat": 36.1484928197085,
						"lng": -86.8148992802915
					}
				}
			},
			"icon": "https://maps.gstatic.com/mapfiles/place_api/icons/museum-71.png",
			"name": "The Parthenon",
			"opening_hours": {
				"open_now": false
			},
			"photos": [
				{
					"height": 2015,
					"html_attributions": [
						"<a href=\"https://maps.google.com/maps/contrib/104398099469476310029\">TheCHIEF BIGFAITH</a>"
					],
					"photo_reference": "CkQ0AAAA3k3oXr7RfJnw3vUAXjEBk7uQccD4d0Ulv_cK8BpDQz71nC7nYHI0b1JBrreQBKYteaoXjAVfAnUIOPNpi3Rg3RIQ7FTTe3EWOAkqu6_lMdYIchoURN57FvsS79WzkWrhNNLKGIk2UfM",
					"width": 2889
				}
			],
			"place_id": "ChIJ5Y_y1kthZIgRpuE6xnvT9HA",
			"plus_code": {
				"compound_code": "45XP+VM Nashville, TN, USA",
				"global_code": "868M45XP+VM"
			},
			"rating": 4.6,
			"reference": "ChIJ5Y_y1kthZIgRpuE6xnvT9HA",
			"scope": "GOOGLE",
			"types": [
				"tourist_attraction",
				"museum",
				"point_of_interest",
				"establishment"
			],
			"user_ratings_total": 5083,
			"vicinity": "2500 West End Avenue, Nashville"
		},
		{
			"business_status": "OPERATIONAL",
			"geometry": {
				"location": {
					"lat": 36.1578972,
					"lng": -86.78385279999999
				},
				"viewport": {
					"northeast": {
						"lat": 36.1593396302915,
						"lng": -86.78256226970849
					},
					"southwest": {
						"lat": 36.1566416697085,
						"lng": -86.7852602302915
					}
				}
			},
			"icon": "https://maps.gstatic.com/mapfiles/place_api/icons/museum-71.png",
			"name": "Frist Art Museum",
			"opening_hours": {
				"open_now": false
			},
			"photos": [
				{
					"height": 4422,
					"html_attributions": [
						"<a href=\"https://maps.google.com/maps/contrib/107345340383374714898\">Frist Art Museum</a>"
					],
					"photo_reference": "CkQ0AAAAr8X68RyUw8Mnh8Ror3bg21wmDo97l4Y6Uh14dTCmkn0KZsKKbZay1c98knAFuVSa5kcuzIyD9AB70bplSRNsxBIQBEaEzUWG0xe2UCwCPBPCERoUYSmb878oHgamM1nVvHGjEIHn3-Y",
					"width": 6633
				}
			],
			"place_id": "ChIJEQk8r_VmZIgRm35FEOeHM-c",
			"plus_code": {
				"compound_code": "5658+5F Nashville, TN, USA",
				"global_code": "868M5658+5F"
			},
			"rating": 4.6,
			"reference": "ChIJEQk8r_VmZIgRm35FEOeHM-c",
			"scope": "GOOGLE",
			"types": [
				"tourist_attraction",
				"cafe",
				"museum",
				"food",
				"point_of_interest",
				"store",
				"establishment"
			],
			"user_ratings_total": 2745,
			"vicinity": "919 Broadway, Nashville"
		},
		{
			"business_status": "OPERATIONAL",
			"geometry": {
				"location": {
					"lat": 36.1490412,
					"lng": -86.81203099999999
				},
				"viewport": {
					"northeast": {
						"lat": 36.1503901802915,
						"lng": -86.8106820197085
					},
					"southwest": {
						"lat": 36.1476922197085,
						"lng": -86.8133799802915
					}
				}
			},
			"icon": "https://maps.gstatic.com/mapfiles/place_api/icons/generic_recreational-71.png",
			"name": "Centennial Park",
			"opening_hours": {
				"open_now": true
			},
			"photos": [
				{
					"height": 2268,
					"html_attributions": [
						"<a href=\"https://maps.google.com/maps/contrib/103552103838780087773\">Joshua Miller</a>"
					],
					"photo_reference": "CkQ0AAAAHfjOiqbys48nUANSwcuJk_9vr_oTnnoOgusHkjDboqvvBz-mt-K9mWQs8QkMGQ_l4N7Fwh6TUU5s1QSC6jZaHBIQZrOdpdBgJI_nVwBffXcLlhoU_rz-P5dMPhoz1MrSnrnw4ad8fXc",
					"width": 4032
				}
			],
			"place_id": "ChIJGUdyG7tmZIgR1Ajq8DD8b_M",
			"plus_code": {
				"compound_code": "45XQ+J5 Nashville, TN, USA",
				"global_code": "868M45XQ+J5"
			},
			"rating": 4.7,
			"reference": "ChIJGUdyG7tmZIgR1Ajq8DD8b_M",
			"scope": "GOOGLE",
			"types": [
				"park",
				"tourist_attraction",
				"point_of_interest",
				"establishment"
			],
			"user_ratings_total": 7544,
			"vicinity": "2500 West End Avenue, Nashville"
		},
		{
			"business_status": "OPERATIONAL",
			"geometry": {
				"location": {
					"lat": 36.0894059,
					"lng": -86.7424903
				},
				"viewport": {
					"northeast": {
						"lat": 36.09089213029149,
						"lng": -86.7410449697085
					},
					"southwest": {
						"lat": 36.0881941697085,
						"lng": -86.7437429302915
					}
				}
			},
			"icon": "https://maps.gstatic.com/mapfiles/place_api/icons/generic_business-71.png",
			"name": "Nashville Zoo at Grassmere",
			"opening_hours": {
				"open_now": true
			},
			"photos": [
				{
					"height": 3024,
					"html_attributions": [
						"<a href=\"https://maps.google.com/maps/contrib/101291362366164827768\">Brian Ladd</a>"
					],
					"photo_reference": "CkQ0AAAAW0OhMMKhD3aINO1dpy_C_tCSw6w7SohqASmbzHZMjylFlSvWsmujmijcQ4KDmUHu4TO_sInrZp3p5OzGkl_bBxIQ5hDrsavFzUt6ysspMvcdsRoU-Mnba6tv-4Uf-YsBxignmEMo4Ao",
					"width": 4032
				}
			],
			"place_id": "ChIJt4SWAYBvZIgR5n1NFy9tC_Y",
			"plus_code": {
				"compound_code": "37Q5+Q2 Nashville, TN, USA",
				"global_code": "868M37Q5+Q2"
			},
			"rating": 4.6,
			"reference": "ChIJt4SWAYBvZIgR5n1NFy9tC_Y",
			"scope": "GOOGLE",
			"types": [
				"zoo",
				"tourist_attraction",
				"point_of_interest",
				"establishment"
			],
			"user_ratings_total": 10573,
			"vicinity": "3777 Nolensville Pike, Nashville"
		},
		{
			"business_status": "OPERATIONAL",
			"geometry": {
				"location": {
					"lat": 36.1696926,
					"lng": -86.7878142
				},
				"viewport": {
					"northeast": {
						"lat": 36.1710499302915,
						"lng": -86.7864456197085
					},
					"southwest": {
						"lat": 36.1683519697085,
						"lng": -86.78914358029151
					}
				}
			},
			"icon": "https://maps.gstatic.com/mapfiles/place_api/icons/generic_business-71.png",
			"name": "NashTrash Tours",
			"opening_hours": {
				"open_now": true
			},
			"photos": [
				{
					"height": 2423,
					"html_attributions": [
						"<a href=\"https://maps.google.com/maps/contrib/106328564876273612798\">Dorothy Bobo</a>"
					],
					"photo_reference": "CkQ0AAAAgSlZ80XHVSvvz4B9uxgO-zHzeUodHfxLLEoGfIgwrPWl62rppNUGOz8sl9jk0Ef26DS-iKEltO-_dGAo7vdbMRIQ2egBaPxUw1h1f_6fpDR8QhoUkFt5whIQeoP6CeY3lneEZ_1n76g",
					"width": 2946
				}
			],
			"place_id": "ChIJq4xgdftmZIgRCv6OM1sjCP4",
			"plus_code": {
				"compound_code": "5696+VV Nashville, TN, USA",
				"global_code": "868M5696+VV"
			},
			"rating": 4.8,
			"reference": "ChIJq4xgdftmZIgRCv6OM1sjCP4",
			"scope": "GOOGLE",
			"types": [
				"tourist_attraction",
				"point_of_interest",
				"establishment"
			],
			"user_ratings_total": 96,
			"vicinity": "900 Rosa L Parks Boulevard, Nashville"
		},
		{
			"business_status": "OPERATIONAL",
			"geometry": {
				"location": {
					"lat": 36.14633550000001,
					"lng": -86.7756304
				},
				"viewport": {
					"northeast": {
						"lat": 36.1479199802915,
						"lng": -86.77422531970849
					},
					"southwest": {
						"lat": 36.1452220197085,
						"lng": -86.7769232802915
					}
				}
			},
			"icon": "https://maps.gstatic.com/mapfiles/place_api/icons/museum-71.png",
			"name": "Adventure Science Center",
			"opening_hours": {
				"open_now": true
			},
			"photos": [
				{
					"height": 3024,
					"html_attributions": [
						"<a href=\"https://maps.google.com/maps/contrib/111336165578939201690\">Ray Maslak</a>"
					],
					"photo_reference": "CkQ0AAAAxz-nNmsANMY6G2uKiBejt6SW7eChr0dgfwB8iDfy_PTXp3z5L12fb1apci7Xq_7a5Igq6uheiWCSb4aPm9-0rhIQA2WbDQUXIbUqO0V_9vb0FRoUVgu-tPLT8bY_Y3TqPi83prXC-nE",
					"width": 4032
				}
			],
			"place_id": "ChIJt8ez9WRmZIgRNzhR_gLvjiA",
			"plus_code": {
				"compound_code": "46WF+GP Nashville, TN, USA",
				"global_code": "868M46WF+GP"
			},
			"rating": 4.6,
			"reference": "ChIJt8ez9WRmZIgRNzhR_gLvjiA",
			"scope": "GOOGLE",
			"types": [
				"tourist_attraction",
				"museum",
				"point_of_interest",
				"establishment"
			],
			"user_ratings_total": 3730,
			"vicinity": "800 Fort Negley Boulevard, Nashville"
		},
		{
			"business_status": "OPERATIONAL",
			"geometry": {
				"location": {
					"lat": 36.1708875,
					"lng": -86.78758900000001
				},
				"viewport": {
					"northeast": {
						"lat": 36.17662444999999,
						"lng": -86.7845371
					},
					"southwest": {
						"lat": 36.16525465,
						"lng": -86.79174469999998
					}
				}
			},
			"icon": "https://maps.gstatic.com/mapfiles/place_api/icons/generic_recreational-71.png",
			"name": "Bicentennial Capitol Mall State Park",
			"opening_hours": {
				"open_now": true
			},
			"photos": [
				{
					"height": 4032,
					"html_attributions": [
						"<a href=\"https://maps.google.com/maps/contrib/106434427064568857106\">Adam Thrasher</a>"
					],
					"photo_reference": "CkQ0AAAAxNz98SNfKaji57kwfhBHn969Rr609zPMCuiDxxzh1F_By_36spD6r4wEkpRXe3uvVz8TU8Zi4twF72QWLs3-YxIQgU4dSRDXWm09Wikz6S1KQBoU783xfi8whn4juAuOu5RP7hPJws0",
					"width": 3024
				}
			],
			"place_id": "ChIJkTQCCvlmZIgRKv6TB6H-Wow",
			"plus_code": {
				"compound_code": "56C6+9X Nashville, TN, USA",
				"global_code": "868M56C6+9X"
			},
			"rating": 4.7,
			"reference": "ChIJkTQCCvlmZIgRKv6TB6H-Wow",
			"scope": "GOOGLE",
			"types": [
				"tourist_attraction",
				"park",
				"point_of_interest",
				"establishment"
			],
			"user_ratings_total": 2472,
			"vicinity": "600 James Robertson Parkway, Nashville"
		},
		{
			"business_status": "OPERATIONAL",
			"geometry": {
				"location": {
					"lat": 36.1609954,
					"lng": -86.775724
				},
				"viewport": {
					"northeast": {
						"lat": 36.1623271302915,
						"lng": -86.7743225697085
					},
					"southwest": {
						"lat": 36.15962916970851,
						"lng": -86.77702053029151
					}
				}
			},
			"icon": "https://maps.gstatic.com/mapfiles/place_api/icons/museum-71.png",
			"name": "The Johnny Cash Museum & Cafe",
			"opening_hours": {
				"open_now": true
			},
			"photos": [
				{
					"height": 456,
					"html_attributions": [
						"<a href=\"https://maps.google.com/maps/contrib/114091392306645164290\">The Johnny Cash Museum &amp; Cafe</a>"
					],
					"photo_reference": "CkQ0AAAAEQ5ZwLXAUfhiFGwmfbUT-ripPqhca_i9pfGb68FhKPM4lKdMft2KTKVHLCKQmkGN8Ebb6_UNesdS373uv8FryRIQFyWCr9oqtOhcHtX4MO1YzRoUphQTbqsYeKXY6VCZf0bbt8aAqfw",
					"width": 612
				}
			],
			"place_id": "ChIJVVVVVYVvZIgR9SLLnlliRbA",
			"plus_code": {
				"compound_code": "566F+9P Nashville, TN, USA",
				"global_code": "868M566F+9P"
			},
			"rating": 4.6,
			"reference": "ChIJVVVVVYVvZIgR9SLLnlliRbA",
			"scope": "GOOGLE",
			"types": [
				"museum",
				"tourist_attraction",
				"cafe",
				"food",
				"point_of_interest",
				"store",
				"establishment"
			],
			"user_ratings_total": 5780,
			"vicinity": "119 3rd Avenue South, Nashville"
		},
		{
			"business_status": "OPERATIONAL",
			"geometry": {
				"location": {
					"lat": 36.1657985,
					"lng": -86.78422750000001
				},
				"viewport": {
					"northeast": {
						"lat": 36.1671645802915,
						"lng": -86.78300081970848
					},
					"southwest": {
						"lat": 36.1644666197085,
						"lng": -86.7856987802915
					}
				}
			},
			"icon": "https://maps.gstatic.com/mapfiles/place_api/icons/civic_building-71.png",
			"name": "Tennessee State Capitol",
			"opening_hours": {
				"open_now": false
			},
			"photos": [
				{
					"height": 4000,
					"html_attributions": [
						"<a href=\"https://maps.google.com/maps/contrib/113677709334706834088\">Mayer</a>"
					],
					"photo_reference": "CkQ0AAAAfag3gfPc58UR2uTsqKJvcJVrOXKCdH3USKmzMGDkppUXOvOgBRHweQRlp1bzurhDjl34lmqbo5ikHugBhYfNGRIQjkhyA4tlkSckhBD_zNBcuxoUU4jdAE8NGcV74SZ3ijQGpU0ORSo",
					"width": 6016
				}
			],
			"place_id": "ChIJs8eMBlhmZIgR_o6KvIAIaxE",
			"plus_code": {
				"compound_code": "5688+88 Nashville, TN, USA",
				"global_code": "868M5688+88"
			},
			"rating": 4.6,
			"reference": "ChIJs8eMBlhmZIgR_o6KvIAIaxE",
			"scope": "GOOGLE",
			"types": [
				"tourist_attraction",
				"local_government_office",
				"point_of_interest",
				"establishment"
			],
			"user_ratings_total": 265,
			"vicinity": "600 Doctor Martin Luther King Junior Boulevard, Nashville"
		},
		{
			"business_status": "OPERATIONAL",
			"geometry": {
				"location": {
					"lat": 36.0760855,
					"lng": -86.76433829999999
				},
				"viewport": {
					"northeast": {
						"lat": 36.0773611302915,
						"lng": -86.76314086970851
					},
					"southwest": {
						"lat": 36.0746631697085,
						"lng": -86.76583883029151
					}
				}
			},
			"icon": "https://maps.gstatic.com/mapfiles/place_api/icons/museum-71.png",
			"name": "Historic Travellers Rest Historic House Museum",
			"opening_hours": {
				"open_now": false
			},
			"photos": [
				{
					"height": 785,
					"html_attributions": [
						"<a href=\"https://maps.google.com/maps/contrib/111184980031524736137\">Historic Travellers Rest Historic House Museum</a>"
					],
					"photo_reference": "CkQ0AAAAImskeBalXdNjv357sKP4AEu0q_dtMo7epW6gK-A-E3uIi0eh4qgGntkchaRXw0AHicQI6Kic1mUBMi7Nxz4b9hIQCepCWPzCeFcbbu4cbYzmMhoU3Laui2uHhecSO6famoA09QPNzm4",
					"width": 1366
				}
			],
			"place_id": "ChIJ17iLURJlZIgR2K2VosOpUvs",
			"plus_code": {
				"compound_code": "36GP+C7 Nashville, TN, USA",
				"global_code": "868M36GP+C7"
			},
			"rating": 4.5,
			"reference": "ChIJ17iLURJlZIgR2K2VosOpUvs",
			"scope": "GOOGLE",
			"types": [
				"tourist_attraction",
				"museum",
				"point_of_interest",
				"establishment"
			],
			"user_ratings_total": 190,
			"vicinity": "636 Farrell Parkway, Nashville"
		},
		{
			"business_status": "OPERATIONAL",
			"geometry": {
				"location": {
					"lat": 36.2037358,
					"lng": -86.69516639999999
				},
				"viewport": {
					"northeast": {
						"lat": 36.2051598802915,
						"lng": -86.69383456970849
					},
					"southwest": {
						"lat": 36.2024619197085,
						"lng": -86.69653253029149
					}
				}
			},
			"icon": "https://maps.gstatic.com/mapfiles/place_api/icons/generic_business-71.png",
			"name": "General Jackson Showboat",
			"opening_hours": {
				"open_now": false
			},
			"photos": [
				{
					"height": 1185,
					"html_attributions": [
						"<a href=\"https://maps.google.com/maps/contrib/113374201771138148229\">General Jackson Showboat</a>"
					],
					"photo_reference": "CkQ0AAAAg23SSxKYVU5jR8UYNY2Qe865dk5qlDpxnOJj7Q6JQSjuvJSDiPkFywRm3iN3iR80MU0lpxk3k-Z78LvVvjy6dxIQ32SIBfVsMeysoHyRlI6uSxoUJ8LrKJ7tjwN3CQs3uWY2PMaWbkM",
					"width": 1800
				}
			],
			"place_id": "ChIJ_6fb7M5pZIgRKUwtyfFQ4FM",
			"plus_code": {
				"compound_code": "6833+FW Nashville, TN, USA",
				"global_code": "868M6833+FW"
			},
			"rating": 4.5,
			"reference": "ChIJ_6fb7M5pZIgRKUwtyfFQ4FM",
			"scope": "GOOGLE",
			"types": [
				"tourist_attraction",
				"travel_agency",
				"restaurant",
				"food",
				"point_of_interest",
				"establishment"
			],
			"user_ratings_total": 1844,
			"vicinity": "2812 Opryland Drive, Nashville"
		},
		{
			"business_status": "OPERATIONAL",
			"geometry": {
				"location": {
					"lat": 36.1660742,
					"lng": -86.7249822
				},
				"viewport": {
					"northeast": {
						"lat": 36.1675854302915,
						"lng": -86.7236988197085
					},
					"southwest": {
						"lat": 36.1648874697085,
						"lng": -86.72639678029151
					}
				}
			},
			"icon": "https://maps.gstatic.com/mapfiles/place_api/icons/generic_recreational-71.png",
			"name": "Shelby Bottoms Nature Center & Greenway",
			"opening_hours": {
				"open_now": false
			},
			"photos": [
				{
					"height": 1024,
					"html_attributions": [
						"<a href=\"https://maps.google.com/maps/contrib/115089559134373391428\">Shelby Bottoms Nature Center &amp; Greenway</a>"
					],
					"photo_reference": "CkQ0AAAA2RGKCn3hwqbjgSftfw3KnDcSFeQFKjvXYkXc758-EKjQ1xCh1ZUNrRgZc8nEaDQtb8gWCZiKkpFBbiAVRev9jBIQjvKJ5HLHkJbRGcUFwGCZqBoUowDME9NqWpeqb9j5dncjKM5eDfs",
					"width": 683
				}
			],
			"place_id": "ChIJI8k0r1FoZIgRFwgmuXMa-Uo",
			"plus_code": {
				"compound_code": "578G+C2 Nashville, TN, USA",
				"global_code": "868M578G+C2"
			},
			"rating": 4.8,
			"reference": "ChIJI8k0r1FoZIgRFwgmuXMa-Uo",
			"scope": "GOOGLE",
			"types": [
				"park",
				"tourist_attraction",
				"point_of_interest",
				"establishment"
			],
			"user_ratings_total": 133,
			"vicinity": "1900 Shelby Bottoms Greenway, Nashville"
		},
		{
			"business_status": "OPERATIONAL",
			"geometry": {
				"location": {
					"lat": 36.06276160000001,
					"lng": -86.8098909
				},
				"viewport": {
					"northeast": {
						"lat": 36.0641208302915,
						"lng": -86.80851481970849
					},
					"southwest": {
						"lat": 36.0614228697085,
						"lng": -86.8112127802915
					}
				}
			},
			"icon": "https://maps.gstatic.com/mapfiles/place_api/icons/generic_recreational-71.png",
			"name": "Radnor Lake State Park",
			"opening_hours": {
				"open_now": true
			},
			"photos": [
				{
					"height": 1536,
					"html_attributions": [
						"<a href=\"https://maps.google.com/maps/contrib/106862255933743535333\">Radnor Lake State Park</a>"
					],
					"photo_reference": "CkQ0AAAAT6qL79arsVVl44DLs0b3D7fpZeitSG2Z5DO-js_eN4OshQdUB7kM0yFyBwN7D1P2UcYY--HIrXeaEoRaZPO5cBIQqo1cXxxsarS6qixbV61OyxoUq3eejl79wmRIlNyWtiBpwekHUlY",
					"width": 2048
				}
			],
			"place_id": "ChIJSSZRQcVkZIgRIuWW24L7QsU",
			"plus_code": {
				"compound_code": "357R+42 Nashville, TN, USA",
				"global_code": "868M357R+42"
			},
			"rating": 4.8,
			"reference": "ChIJSSZRQcVkZIgRIuWW24L7QsU",
			"scope": "GOOGLE",
			"types": [
				"tourist_attraction",
				"park",
				"point_of_interest",
				"establishment"
			],
			"user_ratings_total": 2027,
			"vicinity": "1160 Otter Creek Road, Nashville"
		},
		{
			"business_status": "OPERATIONAL",
			"geometry": {
				"location": {
					"lat": 36.2566745,
					"lng": -86.8254695
				},
				"viewport": {
					"northeast": {
						"lat": 36.25802348029149,
						"lng": -86.82412051970849
					},
					"southwest": {
						"lat": 36.2553255197085,
						"lng": -86.8268184802915
					}
				}
			},
			"icon": "https://maps.gstatic.com/mapfiles/place_api/icons/generic_business-71.png",
			"name": "Carl Black Chevy Woods Amphitheater",
			"opening_hours": {
				"open_now": false
			},
			"photos": [
				{
					"height": 3024,
					"html_attributions": [
						"<a href=\"https://maps.google.com/maps/contrib/115716275093345333622\">Candy Powers</a>"
					],
					"photo_reference": "CkQ0AAAAMKy7S85p3BemWJ85TwK_MDlYJUGG5a9x4jBDAA58E0hI_kKPQij5v8w2-nq_6EdRdjXcJxClB1UChK68ftfz0xIQOG0Fq5Wdez1k8WjjW50g8RoUpgqszVCjVA2SEqVxw9Jyen_0lIA",
					"width": 4032
				}
			],
			"place_id": "ChIJaVJZk3xeZIgRwpcdMf8Uwes",
			"plus_code": {
				"compound_code": "754F+MR Nashville, TN, USA",
				"global_code": "868M754F+MR"
			},
			"rating": 4.3,
			"reference": "ChIJaVJZk3xeZIgRwpcdMf8Uwes",
			"scope": "GOOGLE",
			"types": [
				"tourist_attraction",
				"point_of_interest",
				"establishment"
			],
			"user_ratings_total": 197,
			"vicinity": "4225 Whites Creek Pike, Whites Creek"
		},
		{
			"business_status": "OPERATIONAL",
			"geometry": {
				"location": {
					"lat": 36.1603713,
					"lng": -86.7725932
				},
				"viewport": {
					"northeast": {
						"lat": 36.1617202802915,
						"lng": -86.77124421970849
					},
					"southwest": {
						"lat": 36.1590223197085,
						"lng": -86.77394218029151
					}
				}
			},
			"icon": "https://maps.gstatic.com/mapfiles/place_api/icons/generic_recreational-71.png",
			"name": "Riverfront Park",
			"opening_hours": {
				"open_now": true
			},
			"photos": [
				{
					"height": 2268,
					"html_attributions": [
						"<a href=\"https://maps.google.com/maps/contrib/103688996109495121765\">Wren Wilson</a>"
					],
					"photo_reference": "CkQ0AAAAiKdPvr-Ca4Nb9VzqWBA8MqAPootqhGmAEqMf17BD_UD0052iUhVe5gzFjL7Z-lqJ1kQhp1dyBrEFR25IRBYmMxIQk36s8e9ZZQJUoAwxiOzWhBoUZ6KdJ7iXHqsdnkzL9vUyfdi0N54",
					"width": 4032
				}
			],
			"place_id": "ChIJ8buMwVZmZIgRb0dNB9i-63s",
			"plus_code": {
				"compound_code": "566G+4X Nashville, TN, USA",
				"global_code": "868M566G+4X"
			},
			"rating": 4.5,
			"reference": "ChIJ8buMwVZmZIgRb0dNB9i-63s",
			"scope": "GOOGLE",
			"types": [
				"park",
				"tourist_attraction",
				"point_of_interest",
				"establishment"
			],
			"user_ratings_total": 374,
			"vicinity": "100 1st Avenue North, Nashville"
		},
		{
			"business_status": "OPERATIONAL",
			"geometry": {
				"location": {
					"lat": 36.1013028,
					"lng": -86.9249236
				},
				"viewport": {
					"northeast": {
						"lat": 36.1026255302915,
						"lng": -86.92331781970849
					},
					"southwest": {
						"lat": 36.0999275697085,
						"lng": -86.92601578029151
					}
				}
			},
			"icon": "https://maps.gstatic.com/mapfiles/place_api/icons/worship_hindu-71.png",
			"name": "Sri Ganesha Temple in Nashville",
			"opening_hours": {
				"open_now": true
			},
			"photos": [
				{
					"height": 1960,
					"html_attributions": [
						"<a href=\"https://maps.google.com/maps/contrib/105155010979899226683\">srikanth naramsetty</a>"
					],
					"photo_reference": "CkQ0AAAA0u1x_EKRlVWOnkM-N0ibkzz3XQWKz1-FBypq5IvsbrZg9YTGXzkWu0jfsXrXOS3mwM1YoPAFD_zHR6dfMqPGtBIQWnVwA1XUWOoZr95sz8B02hoUsQIqvyw7II_5TV6G1NOAsJVnXOc",
					"width": 4032
				}
			],
			"place_id": "ChIJ4UIcV7aJZIgRVvGdCgro_qs",
			"plus_code": {
				"compound_code": "432G+G2 Nashville, TN, USA",
				"global_code": "868M432G+G2"
			},
			"rating": 4.8,
			"reference": "ChIJ4UIcV7aJZIgRVvGdCgro_qs",
			"scope": "GOOGLE",
			"types": [
				"hindu_temple",
				"tourist_attraction",
				"place_of_worship",
				"point_of_interest",
				"establishment"
			],
			"user_ratings_total": 772,
			"vicinity": "527 Old Hickory Boulevard, Nashville"
		}
	],
	"status": "OK"
}